[
    {
        "id" : 1,
        "Name": "Langford Delivery, Inc",
        "Address" : "4704 Brushy Ridge Drive",
        "City" : "Austin",
        "State" : "Tx",
        "Zip Code" : "78744",
        "Description" : "some kind of text in here",
        "Hours": "09:00 - 21:00"
    },
    {
        "id" : 2,
        "Name" : "GSD&M",
        "Address" : "828 W 6th St",
        "City" : "Austin",
        "State" : "Tx",
        "Zip Code" : "78701",
        "Description" : "some kind of text in here",
        "Hours": "09:00 - 21:00"
    },
    {
        "id" : 3,
        "Name" : "Cap Metro",
        "Address" : "2910 E 5th",
        "City" : "Austin",
        "State" : "Tx",
        "Zip Code" : "78702",
        "Description" : "some kind of text in here",
        "Hours": "04:00 - 21:00"
    },
    {   "id" : 4,
        "Name" : "Whole Foods Market",
        "Address" : "525 N Lamar",
        "City" : "Austin",
        "State" : "Tx",
        "Zip Code" : "78701",
        "Description" : "high end grocery store",
        "Hours": "07:00 - 12:00 (midnite)"
    },
    {
        "id" : 5,
        "Name" : "FGI",
        "Address" : "3901 S Lamar",
        "City" : "Austin",
        "State" : "Tx",
        "Zip Code" : "78704",
        "Description" : "some kind of text in here",
        "Hours": "09:00 - 16:30"
    }
]